[
  {
    "id": "14",
    "name": "Cha Pa",
    "address": "314 W 52nd St",
    "neighborhood": "Midtown West",
    "borough": "Manhattan",
    "lat": "40.7638",
    "lng": "-73.986076",
    "cuisine": "Vietnamese / Asian",
    "status": "ok",
    "reservationLink": "",
    "reservationNotes": "",
    "coordsAccurate": "True",
    "dist_m": 7.9,
    "geo_lat": 40.7637361,
    "geo_lng": -73.9861164,
    "matched": "314, West 52nd Street, Clinton, Manhattan Community Board 4, Manhattan, New York County, New York, 10019, United States"
  },
  {
    "id": "15",
    "name": "Bad Roman",
    "address": "10 Columbus Circle",
    "neighborhood": "Columbus Circle",
    "borough": "Manhattan",
    "lat": "40.768364",
    "lng": "-73.982641",
    "cuisine": "Italian-American",
    "status": "ok",
    "reservationLink": "",
    "reservationNotes": "",
    "coordsAccurate": "True",
    "dist_m": 29.0,
    "geo_lat": 40.7685685,
    "geo_lng": -73.9824278,
    "matched": "Dizzy\u2019s Club, 10, Columbus Circle, Manhattan Community Board 4, Manhattan, New York County, New York, 10107, United States"
  },
  {
    "id": "16",
    "name": "Dosa House Annapurna Bhavan",
    "address": "615 9th Ave",
    "neighborhood": "Hell's Kitchen",
    "borough": "Manhattan",
    "lat": "40.759552",
    "lng": "-73.992143",
    "cuisine": "South Indian / Dosa",
    "status": "ok",
    "reservationLink": "",
    "reservationNotes": "",
    "coordsAccurate": "True",
    "dist_m": 1.3,
    "geo_lat": 40.7595566,
    "geo_lng": -73.9921572,
    "matched": "615, 9th Avenue, Manhattan Community Board 4, Manhattan, New York County, New York, 10036, United States"
  },
  {
    "id": "17",
    "name": "Mission Chinese",
    "address": "45 Mott St",
    "neighborhood": "Chinatown",
    "borough": "Manhattan",
    "lat": "40.715266",
    "lng": "-73.998832",
    "cuisine": "Chinese-American",
    "status": "ok",
    "reservationLink": "",
    "reservationNotes": "",
    "coordsAccurate": "True",
    "dist_m": 8.1,
    "geo_lat": 40.7152913,
    "geo_lng": -73.9989217,
    "matched": "45, Mott Street, Five Points, Manhattan Community Board 3, Manhattan, New York County, New York, 10013, United States"
  },
  {
    "id": "18",
    "name": "Dean's",
    "address": "213 6th Ave",
    "neighborhood": "SoHo",
    "borough": "Manhattan",
    "lat": "40.727515",
    "lng": "-74.003414",
    "cuisine": "British Coastal / Seafood",
    "status": "ok",
    "reservationLink": "",
    "reservationNotes": "",
    "coordsAccurate": "True",
    "dist_m": 5.8,
    "geo_lat": 40.7274691,
    "geo_lng": -74.0034457,
    "matched": "213, 6th Avenue, Hudson Square, Manhattan, New York County, New York, 10014, United States"
  },
  {
    "id": "19",
    "name": "Musaafer",
    "address": "133 Duane St",
    "neighborhood": "Tribeca",
    "borough": "Manhattan",
    "lat": "40.716325",
    "lng": "-74.007557",
    "cuisine": "Indian",
    "status": "ok",
    "reservationLink": "",
    "reservationNotes": "",
    "coordsAccurate": "True",
    "dist_m": 11.3,
    "geo_lat": 40.716363,
    "geo_lng": -74.0076815,
    "matched": "133, Duane Street, Tribeca, Lower Manhattan, Manhattan, New York County, New York, 10013, United States"
  },
  {
    "id": "20",
    "name": "Wild Cherry",
    "address": "38 Commerce St",
    "neighborhood": "West Village",
    "borough": "Manhattan",
    "lat": "40.731261",
    "lng": "-74.005313",
    "cuisine": "American (Supper Club)",
    "status": "ok",
    "reservationLink": "",
    "reservationNotes": "Not Visited",
    "coordsAccurate": "True",
    "dist_m": 3.3,
    "geo_lat": 40.7312452,
    "geo_lng": -74.0052802,
    "matched": "Cherry Lane Theatre, 38, Commerce Street, West Village, Manhattan, New York County, New York, 10014, United States"
  },
  {
    "id": "21",
    "name": "Eulalie",
    "address": "239 W Broadway",
    "neighborhood": "Tribeca",
    "borough": "Manhattan",
    "lat": "40.719588",
    "lng": "-74.005816",
    "cuisine": "French",
    "status": "ok",
    "reservationLink": "",
    "reservationNotes": "No website; reservations by phone only at (646) 476-2380",
    "coordsAccurate": "True",
    "dist_m": 1.8,
    "geo_lat": 40.7195759,
    "geo_lng": -74.0058025,
    "matched": "B\u00e2tard, 239, West Broadway, Tribeca, Lower Manhattan, Manhattan, New York County, New York, 10013, United States"
  },
  {
    "id": "22",
    "name": "Borgo",
    "address": "124 E 27th St",
    "neighborhood": "Gramercy",
    "borough": "Manhattan",
    "lat": "40.742109",
    "lng": "-73.98358",
    "cuisine": "Italian",
    "status": "ok",
    "reservationLink": "",
    "reservationNotes": "",
    "coordsAccurate": "True",
    "dist_m": 2.4,
    "geo_lat": 40.7420874,
    "geo_lng": -73.9835826,
    "matched": "124, East 27th Street, Rose Hill, Manhattan Community Board 5, Manhattan, New York County, New York, 10016, United States"
  },
  {
    "id": "23",
    "name": "Crane Club",
    "address": "535 W 28th St",
    "neighborhood": "Chelsea",
    "borough": "Manhattan",
    "lat": "40.75174",
    "lng": "-74.003773",
    "cuisine": "Steakhouse",
    "status": "ok",
    "reservationLink": "",
    "reservationNotes": "",
    "coordsAccurate": "True",
    "dist_m": 60.9,
    "geo_lat": 40.7514572,
    "geo_lng": -74.0031538,
    "matched": "535, West 28th Street, Chelsea District, Manhattan Community Board 4, Manhattan, New York County, New York, 10001, United States"
  },
  {
    "id": "24",
    "name": "Le Veau d'Or",
    "address": "129 E 60th St",
    "neighborhood": "Upper East Side",
    "borough": "Manhattan",
    "lat": "40.763204",
    "lng": "-73.968106",
    "cuisine": "French Bistro (Classic)",
    "status": "ok",
    "reservationLink": "",
    "reservationNotes": "",
    "coordsAccurate": "True",
    "dist_m": 2.5,
    "geo_lat": 40.7632212,
    "geo_lng": -73.9680874,
    "matched": "129, East 60th Street, Manhattan Community Board 8, Manhattan, New York County, New York, 10065, United States"
  },
  {
    "id": "27",
    "name": "Rice Thief",
    "address": "27-01 Jackson Ave",
    "neighborhood": "Long Island City",
    "borough": "Queens",
    "lat": "40.747764",
    "lng": "-73.941068",
    "cuisine": "Southeast Asian",
    "status": "ok",
    "reservationLink": "",
    "reservationNotes": "",
    "coordsAccurate": "True",
    "dist_m": 57.0,
    "geo_lat": 40.7477973,
    "geo_lng": -73.9403922,
    "matched": "Jackson Avenue, Court Square, Long Island City, Queens, Queens County, New York, 11101, United States"
  },
  {
    "id": "28",
    "name": "Meju",
    "address": "5-28 49th Ave",
    "neighborhood": "Long Island City",
    "borough": "Queens",
    "lat": "40.743586",
    "lng": "-73.955216",
    "cuisine": "Korean",
    "status": "ok",
    "reservationLink": "https://resy.com/cities/new-york-ny/venues/meju",
    "reservationNotes": "",
    "coordsAccurate": "True",
    "dist_m": 1.0,
    "geo_lat": 40.7435774,
    "geo_lng": -73.9552144,
    "matched": "5-28, 49th Avenue, Hunters Point, Long Island City, Queens, Queens County, New York, 11101, United States"
  },
  {
    "id": "29",
    "name": "Stars Wine Bar",
    "address": "139 E 12th St",
    "neighborhood": "East Village",
    "borough": "Manhattan",
    "lat": "40.732162",
    "lng": "-73.988356",
    "cuisine": "Wine Bar",
    "status": "ok",
    "reservationLink": "",
    "reservationNotes": "Walk-in only",
    "coordsAccurate": "True",
    "dist_m": 0.4,
    "geo_lat": 40.7321585,
    "geo_lng": -73.9883569,
    "matched": "Stars, 139, East 12th Street, East Village, Manhattan Community Board 3, Manhattan, New York County, New York, 10003, United States"
  },
  {
    "id": "31",
    "name": "Yamada Kaiseki",
    "address": "13 E 20th St",
    "neighborhood": "Flatiron",
    "borough": "Manhattan",
    "lat": "40.739415",
    "lng": "-73.990057",
    "cuisine": "Japanese Kaiseki",
    "status": "ok",
    "reservationLink": "https://resy.com/cities/new-york-ny/venues/yamada",
    "reservationNotes": "",
    "coordsAccurate": "True",
    "dist_m": 7.8,
    "geo_lat": 40.7393717,
    "geo_lng": -73.9899848,
    "matched": "13, East 20th Street, Flatiron District, Manhattan Community Board 5, Manhattan, New York County, New York, 10010, United States"
  },
  {
    "id": "32",
    "name": "Lei",
    "address": "15-17 Doyers St",
    "neighborhood": "Chinatown",
    "borough": "Manhattan",
    "lat": "40.714595",
    "lng": "-73.998267",
    "cuisine": "Chinese / Wine Bar",
    "status": "ok",
    "reservationLink": "",
    "reservationNotes": "",
    "coordsAccurate": "True",
    "dist_m": 32.4,
    "geo_lat": 40.7143767,
    "geo_lng": -73.9980122,
    "matched": "Doyers Street, Five Points, Manhattan Community Board 3, Manhattan, New York County, New York, 10278, United States"
  },
  {
    "id": "33",
    "name": "Semma",
    "address": "60 Greenwich Ave",
    "neighborhood": "West Village",
    "borough": "Manhattan",
    "lat": "40.736007",
    "lng": "-74.000611",
    "cuisine": "South Indian",
    "status": "ok",
    "reservationLink": "https://resy.com/cities/new-york-ny/venues/semma",
    "reservationNotes": "",
    "coordsAccurate": "True",
    "dist_m": 9.4,
    "geo_lat": 40.7360314,
    "geo_lng": -74.0005047,
    "matched": "60, Greenwich Avenue, Greenwich Village, Manhattan, New York County, New York, 10011, United States"
  },
  {
    "id": "34",
    "name": "Zou Zou",
    "address": "385 9th Ave",
    "neighborhood": "Hudson Yards",
    "borough": "Manhattan",
    "lat": "40.740861",
    "lng": "-74.005057",
    "cuisine": "Middle Eastern",
    "status": "ok",
    "reservationLink": "",
    "reservationNotes": "",
    "coordsAccurate": "True",
    "dist_m": 1440.3,
    "geo_lat": 40.7528942,
    "geo_lng": -73.9987297,
    "matched": "Zou Zou\u2019s, 385, 9th Avenue, Chelsea District, Manhattan Community Board 4, Manhattan, New York County, New York, 10001, United States"
  },
  {
    "id": "35",
    "name": "Lavaux Wine Bar",
    "address": "630 Hudson St",
    "neighborhood": "West Village",
    "borough": "Manhattan",
    "lat": "40.738377",
    "lng": "-74.005262",
    "cuisine": "Swiss / Wine Bar",
    "status": "ok",
    "reservationLink": "",
    "reservationNotes": "",
    "coordsAccurate": "True",
    "dist_m": 0.1,
    "geo_lat": 40.7383777,
    "geo_lng": -74.0052633,
    "matched": "630, Hudson Street, Meatpacking District, Manhattan, New York County, New York, 10014, United States"
  },
  {
    "id": "36",
    "name": "Limusina",
    "address": "441 9th Ave",
    "neighborhood": "Hudson Yards",
    "borough": "Manhattan",
    "lat": "40.753826",
    "lng": "-73.996218",
    "cuisine": "Mexican",
    "status": "ok",
    "reservationLink": "",
    "reservationNotes": "",
    "coordsAccurate": "True",
    "dist_m": 7.9,
    "geo_lat": 40.7537648,
    "geo_lng": -73.9962654,
    "matched": "ChargePoint, 441, 9th Avenue, Chelsea District, Manhattan Community Board 4, Manhattan, New York County, New York, 10001, United States"
  },
  {
    "id": "37",
    "name": "Win Son Bakery",
    "address": "23 2nd Ave",
    "neighborhood": "East Village",
    "borough": "Manhattan",
    "lat": "40.724608",
    "lng": "-73.990936",
    "cuisine": "Taiwanese-American",
    "status": "ok",
    "reservationLink": "",
    "reservationNotes": "",
    "coordsAccurate": "True",
    "dist_m": 0.6,
    "geo_lat": 40.7246056,
    "geo_lng": -73.9909301,
    "matched": "23, 2nd Avenue, Manhattan Community Board 3, Manhattan, New York County, New York, 10003, United States"
  },
  {
    "id": "38",
    "name": "Cha Long",
    "address": "6 St Marks Pl",
    "neighborhood": "East Village",
    "borough": "Manhattan",
    "lat": "40.729108",
    "lng": "-73.989557",
    "cuisine": "Chinese / Tea",
    "status": "ok",
    "reservationLink": "",
    "reservationNotes": "",
    "coordsAccurate": "True",
    "dist_m": 2.0,
    "geo_lat": 40.7290914,
    "geo_lng": -73.9895672,
    "matched": "6, Saint Marks Place, East Village, Manhattan Community Board 3, Manhattan, New York County, New York, 10003, United States"
  },
  {
    "id": "39",
    "name": "Los Mariscos",
    "address": "Chelsea Market",
    "neighborhood": "Chelsea",
    "borough": "Manhattan",
    "lat": "40.745158",
    "lng": "-73.994648",
    "cuisine": "Mexican Seafood",
    "status": "ok",
    "reservationLink": "",
    "reservationNotes": "",
    "coordsAccurate": "True",
    "dist_m": 930.0,
    "geo_lat": 40.7420513,
    "geo_lng": -74.0048973,
    "matched": "Chelsea Market, 75, 9th Avenue, Chelsea District, Manhattan Community Board 4, Manhattan, New York County, New York, 10011, United States"
  },
  {
    "id": "40",
    "name": "Christos Steakhouse",
    "address": "41-08 23rd Ave",
    "neighborhood": "Astoria",
    "borough": "Queens",
    "lat": "40.770359",
    "lng": "-73.907428",
    "cuisine": "Greek Steakhouse",
    "status": "ok",
    "reservationLink": "",
    "reservationNotes": "",
    "coordsAccurate": "True",
    "dist_m": 1.0,
    "geo_lat": 40.7703505,
    "geo_lng": -73.9074267,
    "matched": "41-08, 23rd Avenue, Steinway, Queens, Queens County, New York, 11105, United States"
  },
  {
    "id": "41",
    "name": "La T\u00eate d'Or",
    "address": "318 Park Ave South",
    "neighborhood": "Flatiron",
    "borough": "Manhattan",
    "lat": "40.740726",
    "lng": "-73.986208",
    "cuisine": "French Steakhouse",
    "status": "ok",
    "reservationLink": "",
    "reservationNotes": "",
    "coordsAccurate": "True",
    "dist_m": 9.1,
    "geo_lat": 40.7407207,
    "geo_lng": -73.9861,
    "matched": "318, Park Avenue South, Rose Hill, Manhattan Community Board 5, Manhattan, New York County, New York, 10010, United States"
  },
  {
    "id": "42",
    "name": "Adda",
    "address": "197 First Ave",
    "neighborhood": "East Village",
    "borough": "Manhattan",
    "lat": "40.730221",
    "lng": "-73.983694",
    "cuisine": "Indian",
    "status": "ok",
    "reservationLink": "https://resy.com/cities/new-york-ny/venues/adda-indian-canteen",
    "reservationNotes": "",
    "coordsAccurate": "True",
    "dist_m": 420.3,
    "geo_lat": 40.7325758,
    "geo_lng": -73.9797924,
    "matched": "First Avenue Loop, Stuy Town, Manhattan Community Board 6, Manhattan, New York County, New York, 10009, United States"
  },
  {
    "id": "43",
    "name": "Saint Urban",
    "address": "43 E 20th St",
    "neighborhood": "Flatiron",
    "borough": "Manhattan",
    "lat": "40.738825",
    "lng": "-73.988435",
    "cuisine": "New American",
    "status": "ok",
    "reservationLink": "",
    "reservationNotes": "",
    "coordsAccurate": "True",
    "dist_m": 1.0,
    "geo_lat": 40.7388335,
    "geo_lng": -73.9884333,
    "matched": "43, East 20th Street, Flatiron District, Manhattan Community Board 5, Manhattan, New York County, New York, 10010, United States"
  },
  {
    "id": "44",
    "name": "The Dynamo Room",
    "address": "2 Pennsylvania Plaza",
    "neighborhood": "Midtown",
    "borough": "Manhattan",
    "lat": "40.750128",
    "lng": "-73.992601",
    "cuisine": "American",
    "status": "ok",
    "reservationLink": "",
    "reservationNotes": "",
    "coordsAccurate": "True",
    "dist_m": 72.2,
    "geo_lat": 40.7503279,
    "geo_lng": -73.9917856,
    "matched": "2, Pennsylvania Plaza, Chelsea District, Manhattan Community Board 5, Manhattan, New York County, New York, 10121, United States"
  },
  {
    "id": "49",
    "name": "Sopo Korean Eats",
    "address": "463 7th Ave",
    "neighborhood": "Midtown",
    "borough": "Manhattan",
    "lat": "40.751786",
    "lng": "-73.989832",
    "cuisine": "Korean Fast Casual",
    "status": "ok",
    "reservationLink": "",
    "reservationNotes": "",
    "coordsAccurate": "True",
    "dist_m": 0.9,
    "geo_lat": 40.7517779,
    "geo_lng": -73.9898312,
    "matched": "463, 7th Avenue, Garment District, Manhattan Community Board 5, Manhattan, New York County, New York, 10018, United States"
  },
  {
    "id": "50",
    "name": "188 Bakery Cuchifritos",
    "address": "158 E 188th St",
    "neighborhood": "South Bronx",
    "borough": "Bronx",
    "lat": "40.861518",
    "lng": "-73.898408",
    "cuisine": "Puerto Rican / Dominican",
    "status": "ok",
    "reservationLink": "",
    "reservationNotes": "",
    "coordsAccurate": "True",
    "dist_m": 5.5,
    "geo_lat": 40.861565,
    "geo_lng": -73.8984273,
    "matched": "158, East 188th Street, Fordham, The Bronx, Bronx County, New York, 10468, United States"
  }
]